INSTNM,CITY,STABBR,INSTURL,CONTROL,REGION,LOCALE,LATITUDE,LONGITUDE,CCBASIC,CCSIZSET,ADM_RATE,SATVRMID,SATMTMID,SATWRMID,ACTCMMID,ACTENMID,ACTMTMID,ACTWRMID,SAT_AVG,COSTT4_A,TUITIONFEE_IN,TUITIONFEE_OUT,RET_FT4,MN_EARN_WNE_P10,MN_EARN_WNE_P6,MN_EARN_WNE_P7,MN_EARN_WNE_P8,MN_EARN_WNE_P9,UGDS_MEN,UGDS_WOMEN
School of the Art Institute of Chicago,Chicago,IL,www.saic.edu,2,3,11,41.879646,-87.621411,30,12,0.6915,575,NULL,560,23,25,NULL,NULL,1065,57361,42230,42230,0.818,37600,27700,30100,32900,34300,0.2846,0.7154
Augustana College,Rock Island,IL,www.augustana.edu,2,3,13,41.500326,-90.552402,21,11,0.5361,NULL,NULL,NULL,NULL,NULL,NULL,NULL,NULL,46882,37236,37236,0.8293,53400,36700,43300,47000,50100,0.4208,0.5792
Aurora University,Aurora,IL,aurora.edu,2,3,21,41.754465,-88.349469,18,12,0.811,495,510,NULL,22,21,21,NULL,1010,31767,21320,21320,0.7103,45200,36000,36800,39200,43000,0.3335,0.6665
Blackburn College,Carlinville,IL,www.blackburn.edu,2,3,32,39.288298,-89.872248,22,8,0.651,473,488,NULL,21,21,20,NULL,989,25292,19560,19560,0.6174,39700,29000,34500,34700,38900,0.4567,0.5433
Bradley University,Peoria,IL,www.bradley.edu,2,3,12,40.697605,-89.61462,19,14,0.643,550,585,530,26,26,26,8,1162,42090,30844,30844,0.8612,57400,41500,46000,48900,54200,0.4862,0.5138
Chicago State University,Chicago,IL,www.csu.edu,1,3,11,41.718813,-87.610344,19,12,0.2996,NULL,484,NULL,18,18,18,NULL,870,19120,9846,16806,0.5289,36500,29500,32600,34000,37000,0.2845,0.7155
University of Chicago,Chicago,IL,WWW.UCHICAGO.EDU,2,3,11,41.78917,-87.601196,15,17,0.0876,760,758,745,34,34,33,NULL,1505,64988,49380,49380,0.9881,96100,71700,80500,81700,87800,0.5273,0.4727
Columbia College-Chicago,Chicago,IL,www.colum.edu,2,3,11,41.873589,-87.624554,19,13,0.8853,NULL,NULL,NULL,NULL,NULL,NULL,NULL,NULL,39109,23544,23544,0.7096,36400,27700,30300,32500,33900,0.4417,0.5583
Concordia University-Chicago,River Forest,IL,www.cuchicago.edu,2,3,21,41.898574,-87.810009,32,11,0.5385,520,520,NULL,22,22,22,NULL,1031,36468,28718,28718,0.6543,40500,31100,37300,37600,42300,0.3877,0.6123
DePaul University,Chicago,IL,www.depaul.edu,2,3,11,41.923332,-87.654116,17,15,0.6988,NULL,NULL,NULL,NULL,NULL,NULL,NULL,NULL,48173,35071,35071,0.8716,55800,42300,46400,49700,54900,0.4667,0.5333
Eastern Illinois University,Charleston,IL,https://www.eiu.edu/,1,3,32,39.483017,-88.175505,18,13,0.4976,NULL,NULL,NULL,22,22,21,NULL,1010,23811,11108,28088,0.7555,43500,32900,36300,38800,43100,0.4023,0.5977
Elmhurst College,Elmhurst,IL,www.elmhurst.edu,2,3,21,41.899215,-87.946096,19,10,0.6771,530,540,NULL,24,24,23,NULL,1089,44143,33950,33950,0.8162,50800,37600,42900,44800,47900,0.3992,0.6008
Eureka College,Eureka,IL,www.eureka.edu,2,3,31,40.713042,-89.268952,22,8,0.6448,570,585,570,23,23,22,NULL,1053,28945,20060,20060,0.6449,40000,32400,31500,33100,37100,0.4387,0.5613
Greenville College,Greenville,IL,www.greenville.edu,2,3,32,38.894751,-89.409178,20,11,0.5568,489,495,465,23,23,22,7,1056,34512,24360,24360,0.704,39600,31700,34700,35000,39400,0.5071,0.4929
Hebrew Theological College,Skokie,IL,www.htc.edu/,2,3,13,42.011055,-87.761119,24,7,0.9284,530,500,520,22,24,21,NULL,1030,34558,19190,19190,0.2278,31000,26000,25200,22000,25700,0.1535,0.8465
University of Illinois at Chicago,Chicago,IL,www.uic.edu,1,3,11,41.872651,-87.651145,15,15,0.7448,525,595,NULL,25,25,25,NULL,1125,25146,13634,26024,0.797,62200,43600,50500,51700,58200,0.4982,0.5018
Benedictine University,Lisle,IL,www.ben.edu,2,3,21,41.776395,-88.095948,17,12,0.7717,NULL,NULL,NULL,22,22,22,8,1030,35143,26558,26558,0.7279,55100,40900,45300,45600,54100,0.4144,0.5856
University of Illinois at Urbana-Champaign,Champaign,IL,www.illinois.edu/,1,3,13,40.108864,-88.230309,15,16,0.5904,640,745,645,29,30,30,9,1326,29086,15020,29646,0.9347,65400,46500,52300,58100,62200,0.5603,0.4397
Illinois Wesleyan University,Bloomington,IL,www.iwu.edu,2,3,13,40.491522,-88.990622,21,11,0.6043,555,710,NULL,28,28,28,NULL,1249,50324,40844,40844,0.9203,61000,41700,47400,54900,56800,0.4387,0.5613
Illinois College,Jacksonville,IL,www.ic.edu,2,3,32,39.730827,-90.246256,21,8,0.5413,NULL,NULL,NULL,NULL,NULL,NULL,NULL,NULL,38644,29210,29210,0.763,41400,32600,35000,37800,40000,0.5,0.5
Illinois Institute of Technology,Chicago,IL,www.iit.edu,2,3,11,41.833801,-87.628346,16,14,0.506,580,690,NULL,28,29,30,NULL,1266,51572,41645,41645,0.868,76500,58500,66600,66500,68700,0.694,0.306
Illinois State University,Normal,IL,illinoisstate.edu/,1,3,22,40.509724,-88.99234,16,16,0.7388,NULL,NULL,NULL,24,24,23,NULL,1110,26259,13296,20886,0.8126,49000,37700,40600,43700,46800,0.4495,0.5505
Judson University,Elgin,IL,www.judsonu.edu,2,3,12,42.05896,-88.289708,20,10,0.7312,555,580,NULL,23,22,22,NULL,1080,39014,27530,27530,0.6915,45200,35600,37700,41300,42600,0.4234,0.5766
Kendall College,Chicago,IL,www.kendall.edu,3,3,11,41.898756,-87.648936,22,9,0.8351,NULL,NULL,NULL,NULL,NULL,NULL,NULL,NULL,40643,25173,25173,0.7317,41600,33700,37000,37200,40400,0.2569,0.7431
Knox College,Galesburg,IL,https://www.knox.edu,2,3,32,40.941829,-90.370316,21,11,0.6824,NULL,NULL,NULL,NULL,NULL,NULL,NULL,NULL,49190,40497,40497,0.8842,46500,28600,33300,35600,43500,0.4186,0.5814
Lake Forest College,Lake Forest,IL,www.lakeforest.edu,2,3,21,42.250456,-87.830777,21,11,0.552,NULL,NULL,NULL,NULL,NULL,NULL,NULL,NULL,51631,41172,41172,0.8546,53800,35600,42700,44200,52500,0.4269,0.5731
Lewis University,Romeoville,IL,www.lewisu.edu,2,3,21,41.605432,-88.079032,18,13,0.6191,535,530,525,23,23,23,NULL,1070,34901,27830,27830,0.8256,50100,40000,44600,45400,49200,0.4267,0.5733
Lincoln Christian University,Lincoln,IL,www.lincolnchristian.edu,2,3,32,40.148897,-89.34582,24,8,0.4758,495,490,460,22,22,22,NULL,1006,26434,16050,16050,0.8261,31200,29800,29200,32100,32600,0.4756,0.5244
Lincoln College,Lincoln,IL,lincolncollege.edu,2,3,32,40.157141,-89.360552,23,7,0.5624,NULL,NULL,NULL,25,25,25,NULL,1125,29217,17500,17500,0.5357,32500,25600,27500,28800,30000,0.4324,0.5676
Loyola University Chicago,Chicago,IL,www.luc.edu,2,3,11,41.999161,-87.657399,16,16,0.6334,575,580,570,27,28,26,9,1212,48958,37412,37412,0.8622,57900,41700,46500,51800,54400,0.3528,0.6472
MacMurray College,Jacksonville,IL,www.mac.edu,2,3,32,39.730226,-90.22175,22,8,0.7837,NULL,NULL,NULL,21,20,21,NULL,970,31846,23600,23600,0.7167,39200,29400,32400,33100,38400,0.4524,0.5476
McKendree University,Lebanon,IL,www.mckendree.edu/prospective/admissions/index.aspx,2,3,21,38.609431,-89.814486,18,10,0.6115,510,520,490,23,23,23,NULL,1048,37845,26900,26900,0.7623,45800,36900,42900,42200,43800,0.436,0.564
Millikin University,Decatur,IL,https://www.millikin.edu,2,3,13,39.842604,-88.974571,22,11,0.6273,500,500,470,23,23,22,8,1046,39472,29620,29620,0.8244,47500,35900,40200,39800,44500,0.4078,0.5922
Monmouth College,Monmouth,IL,www.monmouthcollege.edu,2,3,32,40.91459,-90.637909,21,11,0.6906,525,570,485,22,22,22,NULL,1033,42027,33200,33200,0.741,45200,32800,36100,38400,40700,0.4543,0.5457
National Louis University,Chicago,IL,www.nl.edu,2,3,11,41.879826,-87.624805,17,9,0.9744,NULL,NULL,NULL,NULL,NULL,NULL,NULL,NULL,26605,12867,12867,0.5185,49000,43600,45800,47200,50000,0.2204,0.7796
North Central College,Naperville,IL,northcentralcollege.edu,2,3,12,41.775304,-88.143649,19,11,0.5984,NULL,NULL,NULL,25,25,25,NULL,1125,43557,34230,34230,0.7826,48100,36500,39900,43000,46500,0.4406,0.5594
North Park University,Chicago,IL,www.northpark.edu,2,3,11,41.9751,-87.709142,18,10,0.5461,500,499,NULL,22,22,21,NULL,1025,31964,24600,24600,0.7925,46000,35800,38800,39800,42200,0.3709,0.6291
Northern Illinois University,Dekalb,IL,www.niu.edu,1,3,23,41.933791,-88.766065,16,16,0.5089,500,530,490,22,22,22,7,1030,27959,13505,22784,0.7053,47400,37000,39600,42400,45500,0.5074,0.4926
Northwestern University,Evanston,IL,www.northwestern.edu,2,3,13,42.058377,-87.673653,15,16,0.1311,730,745,730,33,NULL,33,9,1461,63028,47251,47251,0.9686,88400,67300,73300,73500,78800,0.4955,0.5045
Northeastern Illinois University,Chicago,IL,www.neiu.edu/,1,3,11,41.980567,-87.72013,18,12,0.5761,475,435,NULL,19,18,19,NULL,890,23095,8868,16164,0.6034,39600,32600,33400,35300,39300,0.4392,0.5608
Olivet Nazarene University,Bourbonnais,IL,www.olivet.edu,2,3,23,41.155489,-87.873654,18,14,0.7449,NULL,NULL,NULL,24,24,24,NULL,1105,40949,31390,31390,0.7689,42400,34300,37800,37500,39800,0.3764,0.6236
Quincy University,Quincy,IL,www.quincy.edu,2,3,33,39.939235,-91.387928,19,11,0.8893,475,450,NULL,22,22,21,NULL,1024,36972,26572,26572,0.7564,44300,33100,37900,37900,39400,0.44,0.56
Robert Morris University Illinois,Chicago,IL,www.robertmorris.edu/,2,3,11,41.876278,-87.627068,18,9,0.2433,NULL,NULL,NULL,NULL,NULL,NULL,NULL,NULL,32037,23700,23700,0.5043,35100,29700,30300,31300,35900,0.504,0.496
Rockford University,Rockford,IL,www.rockford.edu,2,3,12,42.270639,-89.019536,20,10,0.548,495,490,475,22,22,21,NULL,1009,37127,27530,27530,0.6408,41500,35800,37500,40600,39900,0.3805,0.6195
Roosevelt University,Chicago,IL,www.roosevelt.edu,2,3,11,41.876055,-87.624952,18,12,0.7764,540,510,546,23,23,22,NULL,1050,42022,26900,26900,0.6503,46800,36800,41400,42500,45200,0.3703,0.6297
Dominican University,River Forest,IL,www.dom.edu/,2,3,21,41.902834,-87.821872,18,10,0.6067,440,505,500,22,22,23,NULL,1029,36761,29770,29770,0.8068,45700,34900,39800,41800,46100,0.3397,0.6603
University of St Francis,Joliet,IL,www.stfrancis.edu,2,3,21,41.533341,-88.096368,18,10,0.5056,490,495,480,23,23,23,NULL,1064,36919,28790,28790,0.8101,47700,45700,46100,49100,47000,0.3181,0.6819
Saint Xavier University,Chicago,IL,WWW.SXU.EDU,2,3,11,41.707763,-87.713507,18,13,0.4964,474,449,466,22,22,21,NULL,1008,36152,30100,30100,0.7479,48100,40800,42700,44500,47800,0.331,0.669
University of Illinois at Springfield,Springfield,IL,www.uis.edu,1,3,12,39.729862,-89.614917,18,13,0.6158,455,545,465,24,23,22,7,1081,21630,11367,20517,0.7917,45400,35700,40100,43700,41700,0.4901,0.5099
Southern Illinois University-Carbondale,Carbondale,IL,www.siu.edu,1,3,13,37.713239,-89.218724,16,16,0.8153,553,565,NULL,23,23,22,NULL,1055,25105,12248,24871,0.6814,47400,34800,40000,42100,45300,0.5432,0.4568
Southern Illinois University-Edwardsville,Edwardsville,IL,www.siue.edu,1,3,21,38.793949,-89.997779,18,16,0.8696,520,525,493,23,23,23,NULL,1070,22219,9738,20682,0.7264,45900,36300,40000,43200,44400,0.4701,0.5299
Trinity Christian College,Palos Heights,IL,www.trnty.edu,2,3,21,41.669189,-87.784157,22,10,0.9022,505,540,NULL,24,24,23,NULL,1080,35139,25515,25515,0.8424,45500,35600,39200,39200,41400,0.3452,0.6548
Western Illinois University,Macomb,IL,www.wiu.edu,1,3,33,40.465621,-90.685235,18,16,0.6964,NULL,NULL,NULL,21,20,20,NULL,970,25074,12217,16533,0.7205,44900,34000,38000,40600,43000,0.5071,0.4929
Wheaton College,Wheaton,IL,www.wheaton.edu,2,3,21,41.870943,-88.09681,21,11,0.6915,655,645,650,30,31,29,9,1311,42390,31900,31900,0.933,48700,35700,38900,46800,47200,0.4792,0.5208
Chamberlain College of Nursing-Illinois,Addison,IL,www.chamberlain.edu,3,3,21,41.949727,-88.038558,26,12,0.6,NULL,NULL,NULL,NULL,NULL,NULL,NULL,NULL,31266,17280,17280,0.5385,58000,65000,53600,57300,57300,0.091,0.909