INSTNM,CITY,STABBR,INSTURL,CONTROL,REGION,LOCALE,LATITUDE,LONGITUDE,CCBASIC,CCSIZSET,ADM_RATE,SATVRMID,SATMTMID,SATWRMID,ACTCMMID,ACTENMID,ACTMTMID,ACTWRMID,SAT_AVG,COSTT4_A,TUITIONFEE_IN,TUITIONFEE_OUT,RET_FT4,MN_EARN_WNE_P10,MN_EARN_WNE_P6,MN_EARN_WNE_P7,MN_EARN_WNE_P8,MN_EARN_WNE_P9,UGDS_MEN,UGDS_WOMEN
American International College,Springfield,MA,www.aic.edu,2,1,12,42.112708,-72.558507,17,10,0.6757,438,443,420,20,NULL,NULL,NULL,887,42762,30940,30940,0.689,43300,37300,37900,41700,44200,0.4141,0.5859
Amherst College,Amherst,MA,www.amherst.edu,2,1,21,42.372459,-72.518493,21,11,0.1384,724,725,720,32,33,31,NULL,1439,61544,48526,48526,0.985,85900,44700,66700,62100,81600,0.5173,0.4827
Anna Maria College,Paxton,MA,www.annamaria.edu,2,1,41,42.33055,-71.918961,19,10,0.7757,NULL,NULL,NULL,NULL,NULL,NULL,NULL,NULL,45599,34060,34060,0.6612,44100,35700,36100,40200,44000,0.4016,0.5984
Assumption College,Worcester,MA,www.assumption.edu,2,1,12,42.295435,-71.828387,19,11,0.813,NULL,NULL,NULL,NULL,NULL,NULL,NULL,NULL,47428,36160,36160,0.8287,57500,40000,45700,50300,53700,0.4036,0.5964
Babson College,Wellesley,MA,www.babson.edu,2,1,21,42.296529,-71.269479,29,11,0.2631,615,660,625,28,29,29,NULL,1272,60494,45120,45120,0.9448,105700,70200,76400,84900,96900,0.5316,0.4684
Bay Path University,Longmeadow,MA,www.baypath.edu,2,1,21,42.055364,-72.583974,18,11,0.6305,482,470,475,20,19,20,10,951,41344,30859,30859,0.7721,42900,36800,38900,39100,43700,0,1
Bay State College,Boston,MA,www.baystate.edu,3,1,11,42.351965,-71.076956,23,6,0.5041,NULL,NULL,NULL,NULL,NULL,NULL,NULL,NULL,34570,20324,20324,0.8889,30900,26500,28700,30200,32300,0.3403,0.6597
Becker College,Worcester,MA,www.becker.edu,2,1,12,42.26918,-71.811895,22,10,0.6247,505,500,NULL,23,23,22,NULL,1015,45609,32870,32870,0.6667,41800,36200,39500,42200,38200,0.4203,0.5797
Bentley University,Waltham,MA,www.bentley.edu,2,1,13,42.388798,-71.220148,18,14,0.4611,590,650,600,28,NULL,NULL,NULL,1247,56768,42511,42511,0.9394,85200,59800,65300,75600,74800,0.6002,0.3998
Berklee College of Music,Boston,MA,www.berklee.edu,2,1,11,42.346895,-71.08703,30,12,0.4038,NULL,NULL,NULL,NULL,NULL,NULL,NULL,NULL,58249,38910,38910,0.8359,36700,24800,28400,32200,34600,0.6802,0.3198
Boston College,Chestnut Hill,MA,www.bc.edu,2,1,13,42.337688,-71.171488,15,17,0.3391,675,690,685,32,32,31,9,1380,60690,47436,47436,0.9605,85600,64800,72500,77600,79300,0.4633,0.5367
The Boston Conservatory,Boston,MA,www.bostonconservatory.edu,2,1,11,42.346933,-71.090502,30,7,0.3904,NULL,NULL,NULL,NULL,NULL,NULL,NULL,NULL,60057,42326,42326,0.8947,35900,28600,27900,29400,31400,0.3802,0.6198
Boston University,Boston,MA,www.bu.edu,2,1,11,42.349581,-71.09984,15,17,0.3451,625,675,645,29,30,29,9,1300,61396,46664,46664,0.935,69500,48500,54700,59800,63600,0.391,0.609
Brandeis University,Waltham,MA,www.brandeis.edu/,2,1,13,42.364947,-71.254716,15,14,0.3522,650,715,675,31,32,31,9,1369,61023,47558,47558,0.9314,67600,41300,49100,53300,64700,0.4293,0.5707
Bridgewater State University,Bridgewater,MA,www.bridgew.edu,1,1,21,41.987785,-70.966058,18,13,0.7931,490,500,NULL,22,NULL,NULL,NULL,991,19877,8353,14493,0.8132,43700,34500,37400,39800,41500,0.4117,0.5883
Clark University,Worcester,MA,www.clarku.edu,2,1,12,42.251064,-71.823537,17,14,0.5403,NULL,NULL,NULL,NULL,NULL,NULL,NULL,NULL,48366,40730,40730,0.8795,47300,33500,39500,43400,46600,0.4118,0.5882
Curry College,Milton,MA,www.curry.edu,2,1,21,42.240616,-71.114007,19,10,0.8688,475,475,NULL,20,20,20,NULL,948,48778,35725,35725,0.7109,50400,39100,43400,44400,48500,0.3683,0.6317
Dean College,Franklin,MA,www.dean.edu,2,1,21,42.08497,-71.399003,23,11,0.6866,440,420,NULL,18,16,16,NULL,857,47892,34390,34390,0.6968,35600,26300,30400,31200,35400,0.4825,0.5175
Eastern Nazarene College,Quincy,MA,www.enc.edu,2,1,21,42.271214,-71.011238,20,11,0.5287,465,460,440,19,18,20,7,918,37563,29012,29012,0.7152,48900,35400,39200,39900,46300,0.3283,0.6717
Emerson College,Boston,MA,www.emerson.edu,2,1,11,42.35532,-71.074037,18,14,0.4918,630,605,625,28,28,26,9,1244,53499,37350,37350,0.891,49000,33900,37500,41800,46100,0.3875,0.6125
Emmanuel College,Boston,MA,www.emmanuel.edu,2,1,11,42.341191,-71.103038,21,11,0.693,550,540,550,24,NULL,NULL,NULL,1093,51082,35532,35532,0.7864,48300,37400,41700,46000,43900,0.2669,0.7331
Endicott College,Beverly,MA,www.endicott.edu,2,1,21,42.554177,-70.840729,18,14,0.7315,NULL,NULL,NULL,NULL,NULL,NULL,NULL,NULL,45323,29494,29494,0.8347,50100,41500,43400,47300,45400,0.3768,0.6232
Fisher College,Boston,MA,www.fisher.edu,2,1,11,42.355253,-71.074125,23,9,0.6557,NULL,NULL,NULL,NULL,NULL,NULL,NULL,NULL,41718,28260,28260,0.5963,32400,29700,29800,33400,31900,0.298,0.702
Fitchburg State University,Fitchburg,MA,www.fitchburgstate.edu,1,1,22,42.589345,-71.789354,18,13,0.7231,495,510,480,21,NULL,NULL,NULL,1004,17894,9260,15340,0.7747,43700,35300,37300,39000,43800,0.4403,0.5597
Framingham State University,Framingham,MA,www.framingham.edu/index.html,1,1,13,42.297289,-71.437175,18,14,0.6226,505,505,490,22,NULL,NULL,NULL,1011,22097,8320,14400,0.745,47200,35600,39900,41100,43700,0.3574,0.6426
Gordon College,Wenham,MA,www.gordon.edu,2,1,21,42.588173,-70.819133,21,11,0.8837,580,575,575,26,27,26,8,1161,44699,34390,34390,0.8134,43500,33400,35500,38900,40500,0.3852,0.6148
Hampshire College,Amherst,MA,www.hampshire.edu,2,1,21,42.324772,-72.532401,21,11,0.6664,NULL,NULL,NULL,NULL,NULL,NULL,NULL,NULL,60048,48065,48065,0.7769,40500,23600,26300,29600,33900,0.4094,0.5906
Harvard University,Cambridge,MA,www.harvard.edu,2,1,12,42.374429,-71.118177,15,17,0.0596,750,755,760,34,34,34,9,1501,59950,43938,43938,0.9783,136400,100300,113600,112800,123000,0.5246,0.4754
College of the Holy Cross,Worcester,MA,www.holycross.edu,2,1,12,42.238942,-71.808627,21,11,0.4334,NULL,NULL,NULL,NULL,NULL,NULL,NULL,NULL,57754,45692,45692,0.9388,77100,49100,58300,67600,72800,0.5116,0.4884
Lasell College,Newton,MA,www.lasell.edu/,2,1,13,42.342712,-71.243738,19,11,0.7632,485,490,480,21,NULL,NULL,NULL,974,44737,31000,31000,0.75,42600,33700,35100,38000,41900,0.3526,0.6474
Lesley University,Cambridge,MA,www.lesley.edu,2,1,12,42.378429,-71.115601,17,13,0.7149,560,525,545,24,24,23,8,1086,48818,24375,24375,0.7603,37400,28700,33500,34800,37600,0.2171,0.7829
University of Massachusetts-Lowell,Lowell,MA,www.uml.edu,1,1,21,42.65372,-71.325081,16,16,0.6201,555,590,NULL,25,24,26,NULL,1145,23628,12447,27400,0.8435,54500,41700,45800,48600,50300,0.62,0.38
University of Massachusetts-Amherst,Amherst,MA,www.umass.edu,1,1,21,42.386162,-72.52617,15,17,0.6139,595,620,NULL,27,NULL,NULL,NULL,1217,26207,13443,28998,0.8989,54100,40600,43400,46600,50900,0.5108,0.4892
University of Massachusetts-Boston,Boston,MA,www.umb.edu,1,1,11,42.314541,-71.038653,16,15,0.7077,515,535,NULL,NULL,NULL,NULL,NULL,1050,19355,11966,28390,0.7973,49500,40100,43800,45000,47700,0.4467,0.5533
MCPHS University,Boston,MA,www.mcphs.edu,2,1,11,42.337036,-71.100964,26,13,0.8401,520,560,530,23,23,25,8,1074,44449,30400,30400,0.8664,102700,88600,103700,101700,108800,0.3136,0.6864
Massachusetts College of Art and Design,Boston,MA,www.massart.edu,1,1,11,42.33693,-71.099537,30,10,0.7294,550,520,530,25,NULL,NULL,NULL,1077,25838,11225,29925,0.8907,37100,29400,32400,33600,34100,0.297,0.703
Massachusetts Institute of Technology,Cambridge,MA,web.mit.edu/student/,2,1,12,42.360095,-71.092115,15,17,0.0788,725,770,735,34,34,35,9,1500,59020,45016,45016,0.9865,127700,102700,122900,126500,121400,0.5424,0.4576
Massachusetts Maritime Academy,Buzzards Bay,MA,www.maritime.edu,1,1,22,41.740538,-70.623953,20,11,0.616,520,590,490,23,NULL,NULL,NULL,1105,22073,7250,22304,0.8886,77200,67600,69900,81200,76400,0.876,0.124
Merrimack College,North Andover,MA,www.merrimack.edu,2,1,21,42.668352,-71.124216,19,14,0.7777,NULL,NULL,NULL,NULL,NULL,NULL,NULL,NULL,47996,36215,36215,0.8325,58800,44200,46200,50000,55800,0.4878,0.5122
Mount Holyoke College,South Hadley,MA,www.mtholyoke.edu,2,1,21,42.257588,-72.573625,21,11,0.547,NULL,NULL,NULL,NULL,NULL,NULL,NULL,NULL,55454,42656,42656,0.9061,46600,32200,38000,42400,45400,0,1
Mount Ida College,Newton,MA,www.mountida.edu,2,1,13,42.293205,-71.194658,22,11,0.6849,445,440,435,19,NULL,NULL,NULL,886,44219,30447,30447,0.6756,39000,32600,34700,36800,36500,0.3372,0.6628
School of the Museum of Fine Arts-Boston,Boston,MA,www.smfa.edu,2,1,11,42.338958,-71.096941,30,6,0.9035,NULL,NULL,NULL,NULL,NULL,NULL,NULL,NULL,54786,40348,40348,0.8704,32800,26100,30000,29500,31200,0.2894,0.7106
The New England Conservatory of Music,Boston,MA,necmusic.edu,2,1,11,42.340998,-71.086321,30,7,0.2914,NULL,NULL,NULL,NULL,NULL,NULL,NULL,NULL,55870,41405,41405,0.9247,39400,28500,30000,31200,40000,0.5578,0.4422
Newbury College,Brookline,MA,www.newbury.edu,2,1,21,42.331032,-71.142082,22,7,0.7026,NULL,NULL,NULL,NULL,NULL,NULL,NULL,NULL,42593,29930,29930,0.5945,38700,30700,32800,34500,37100,0.4294,0.5706
Nichols College,Dudley,MA,www.nichols.edu,2,1,21,42.042462,-71.929644,29,11,0.7628,NULL,NULL,NULL,NULL,NULL,NULL,NULL,NULL,46377,32370,32370,0.7082,50900,38600,41700,42900,48100,0.612,0.388
Massachusetts College of Liberal Arts,North Adams,MA,www.mcla.edu,1,1,31,42.692427,-73.1035,21,11,0.7227,495,480,NULL,21,NULL,NULL,NULL,977,20552,8975,17920,0.7823,36500,27200,31400,31900,36000,0.3744,0.6256
Northeastern University,Boston,MA,www.northeastern.edu,2,1,11,42.339992,-71.088782,15,16,0.3222,700,720,685,32,32,32,NULL,1420,57981,43440,43440,0.9619,67000,52200,56800,61900,63200,0.495,0.505
College of Our Lady of the Elms,Chicopee,MA,www.elms.edu,2,1,21,42.14179,-72.601541,20,10,0.7897,470,480,465,19,NULL,NULL,NULL,946,41625,31188,31188,0.8556,46300,44000,42500,44700,44400,0.2365,0.7635
Pine Manor College,Chestnut Hill,MA,www.pmc.edu,2,1,21,42.319568,-71.156973,21,8,0.6784,385,395,390,NULL,NULL,NULL,NULL,780,38346,26180,26180,0.7049,34100,28400,30200,29400,36200,0.3591,0.6409
Regis College,Weston,MA,www.regiscollege.edu,2,1,21,42.351105,-71.309126,26,10,0.7591,NULL,NULL,NULL,NULL,NULL,NULL,NULL,NULL,48392,35750,35750,0.8383,47100,46000,43800,50700,46600,0.2281,0.7719
Salem State University,Salem,MA,www.salemstate.edu,1,1,21,42.502879,-70.889321,18,13,0.7057,490,494,NULL,21,NULL,NULL,NULL,984,20484,8646,14786,0.811,42900,35400,38000,40400,41400,0.3915,0.6085
Simmons College,Boston,MA,www.simmons.edu,2,1,11,42.3393,-71.099967,18,14,0.5216,590,575,595,26,25,26,NULL,1170,52348,36230,36230,0.8639,53000,44200,46600,51000,52800,0,1
Bard College at Simon's Rock,Great Barrington,MA,www.simons-rock.edu/,2,1,41,42.209241,-73.380008,21,8,0.8939,NULL,NULL,NULL,NULL,NULL,NULL,NULL,NULL,60634,48551,48551,0.7986,39000,27500,27300,33900,42200,0.418,0.582
Smith College,Northampton,MA,www.smith.edu,2,1,21,42.317933,-72.638094,21,11,0.4221,NULL,NULL,NULL,NULL,NULL,NULL,NULL,NULL,60167,44724,44724,0.9378,48700,34300,37400,42000,46100,0,1
Springfield College,Springfield,MA,www.springfield.edu/,2,1,12,42.105033,-72.555688,18,14,0.7087,510,530,NULL,20,22,22,NULL,1025,45887,33455,33455,0.8314,46900,38800,42300,42900,46600,0.5178,0.4822
University of Massachusetts-Dartmouth,North Dartmouth,MA,www.umassd.edu,1,1,22,41.628861,-71.005528,16,14,0.7682,505,520,490,22,NULL,NULL,NULL,1025,24104,11681,24619,0.7936,48500,37200,40500,42600,45300,0.5233,0.4767
Stonehill College,Easton,MA,www.stonehill.edu,2,1,21,42.061448,-71.078123,21,11,0.7696,NULL,NULL,NULL,NULL,NULL,NULL,NULL,NULL,51977,37426,37426,0.9031,64300,44400,52600,54800,60800,0.4072,0.5928
Suffolk University,Boston,MA,www.suffolk.edu,2,1,11,42.359134,-71.06192,17,12,0.8391,515,525,510,24,NULL,NULL,NULL,1049,46152,32660,32660,0.7567,57800,39800,47700,47900,53500,0.4475,0.5525
Tufts University,Medford,MA,www.tufts.edu,2,1,21,42.406994,-71.121689,15,17,0.1724,720,720,725,32,NULL,NULL,NULL,1423,61000,48643,48643,0.9694,85100,64800,63500,82900,84800,0.4956,0.5044
Wellesley College,Wellesley,MA,www.wellesley.edu,2,1,21,42.293765,-71.307966,21,11,0.3011,695,690,710,32,33,31,9,1390,59092,45078,45078,0.9424,66800,43600,52800,55200,63100,0,1
Wentworth Institute of Technology,Boston,MA,WWW.WIT.EDU,2,1,11,42.336632,-71.094983,19,13,0.8264,535,580,520,25,24,26,NULL,1116,46112,30765,30765,0.8449,59000,47400,49300,54800,54400,0.8109,0.1891
Western New England University,Springfield,MA,www.wne.edu,2,1,12,42.115837,-72.518789,19,14,0.8015,520,550,NULL,24,NULL,NULL,NULL,1077,47447,33466,33466,0.7603,61000,41800,50200,50400,58400,0.6021,0.3979
Westfield State University,Westfield,MA,www.westfield.ma.edu,1,1,21,42.131589,-72.795673,19,14,0.7456,495,505,490,21,NULL,NULL,NULL,997,20536,8682,14762,0.7677,45100,34500,39100,41100,43000,0.468,0.532
Wheaton College,Norton,MA,www.wheatoncollege.edu,2,1,21,41.966813,-71.184167,21,11,0.6963,NULL,NULL,NULL,NULL,NULL,NULL,NULL,NULL,58422,46423,46423,0.8253,51900,36400,41000,45100,47500,0.3575,0.6425
Wheelock College,Boston,MA,www.wheelock.edu,2,1,11,42.342503,-71.10582,19,11,0.8752,490,475,490,20,NULL,NULL,NULL,963,46164,32830,32830,0.7581,38500,30700,32600,34800,35900,0.1223,0.8777
Williams College,Williamstown,MA,www.williams.edu,2,1,31,42.711669,-73.205888,21,11,0.1932,735,720,735,33,NULL,NULL,NULL,1452,61850,48310,48310,0.9779,73700,44400,56100,68800,73300,0.4923,0.5077
Worcester Polytechnic Institute,Worcester,MA,www.wpi.edu,2,1,12,42.275067,-71.808792,16,14,0.4378,NULL,NULL,NULL,NULL,NULL,NULL,NULL,NULL,57637,44222,44222,0.9701,81500,62500,72100,72900,76700,0.6772,0.3228
Worcester State University,Worcester,MA,www.worcester.edu,1,1,12,42.267534,-71.844019,18,13,0.613,490,505,485,22,21,22,NULL,997,18252,8557,14637,0.8168,48100,37300,40400,43300,44200,0.4043,0.5957