INSTNM,CITY,STABBR,INSTURL,CONTROL,REGION,LOCALE,LATITUDE,LONGITUDE,CCBASIC,CCSIZSET,ADM_RATE,SATVRMID,SATMTMID,SATWRMID,ACTCMMID,ACTENMID,ACTMTMID,ACTWRMID,SAT_AVG,COSTT4_A,TUITIONFEE_IN,TUITIONFEE_OUT,RET_FT4,MN_EARN_WNE_P10,MN_EARN_WNE_P6,MN_EARN_WNE_P7,MN_EARN_WNE_P8,MN_EARN_WNE_P9,UGDS_MEN,UGDS_WOMEN
Appalachian State University,Boone,NC,www.appstate.edu/,1,5,32,36.214844,-81.680234,18,16,0.6266,575,575,550,25,26,25,7,1148,19017,6553,19720,0.8762,41100,30400,33600,36100,38500,0.462,0.538
Barton College,Wilson,NC,www.barton.edu/,2,5,31,35.735463,-77.913805,22,8,0.3846,475,480,NULL,21,19,21,NULL,962,38209,26664,26664,0.7442,39100,30900,34000,36200,37200,0.3146,0.6854
Belmont Abbey College,Belmont,NC,www.belmontabbeycollege.edu,2,5,22,35.261276,-81.041847,22,10,0.6923,495,510,NULL,21,21,21,NULL,1000,31278,18500,18500,0.6316,40700,32100,35600,36600,40600,0.4285,0.5715
Bennett College,Greensboro,NC,www.bennett.edu,2,5,11,36.067531,-79.77998,22,8,0.9179,NULL,NULL,NULL,NULL,NULL,NULL,NULL,NULL,30549,17355,17355,0.5155,29200,21000,25600,27900,29800,0,1
Brevard College,Brevard,NC,www.brevard.edu,2,5,31,35.237657,-82.729763,22,8,0.4321,NULL,NULL,NULL,NULL,NULL,NULL,NULL,NULL,36307,26170,26170,0.5909,30400,24100,25300,29500,31600,0.5805,0.4195
Campbell University,Buies Creek,NC,www.campbell.edu,2,5,31,35.409333,-78.739508,18,14,0.6806,525,500,535,22,22,23,NULL,1025,42061,27530,27530,0.7211,53800,40500,49500,50700,50900,0.4818,0.5182
Catawba College,Salisbury,NC,www.catawba.edu,2,5,22,35.692445,-80.486575,22,11,0.359,NULL,NULL,NULL,NULL,NULL,NULL,NULL,NULL,39042,27360,27360,0.7297,41400,30400,34800,35800,38700,0.4717,0.5283
Chowan University,Murfreesboro,NC,www.chowan.edu/,2,5,32,36.436258,-77.099141,22,11,0.5981,395,395,375,15,15,16,NULL,773,31573,22900,22900,0.5211,35200,25300,29400,31300,35800,0.4871,0.5129
Davidson College,Davidson,NC,www.davidson.edu/,2,5,21,35.500006,-80.845236,21,11,0.2167,665,670,665,30,NULL,NULL,NULL,1337,57458,45377,45377,0.9523,63800,48300,47700,60900,66600,0.4946,0.5054
Duke University,Durham,NC,WWW.DUKE.EDU,2,5,12,36.00159,-78.94226,15,17,0.1141,715,745,735,33,33,34,9,1454,61748,47243,47243,0.9723,106300,86900,95000,98300,101100,0.5037,0.4963
East Carolina University,Greenville,NC,www.ecu.edu,1,5,13,35.606347,-77.366199,16,16,0.7728,510,530,490,22,22,22,7,1036,20710,6143,21340,0.812,43500,34600,37100,38700,42300,0.4189,0.5811
Elizabeth City State University,Elizabeth City,NC,www.ecsu.edu,1,5,32,36.273539,-76.210063,20,10,0.49,425,440,400,19,19,18,NULL,866,12305,4498,16173,0.6832,30800,22700,25700,26500,31900,0.4112,0.5888
Elon University,Elon,NC,www.elon.edu,2,5,22,36.104149,-79.505632,19,14,0.5393,610,615,610,27,28,26,NULL,1225,43388,31247,31247,0.9111,53900,40400,43600,47500,47300,0.4051,0.5949
Fayetteville State University,Fayetteville,NC,www.uncfsu.edu,1,5,12,35.072485,-78.894709,19,13,0.5032,435,450,405,19,18,19,7,892,14366,4655,16263,0.7446,32200,26100,29000,30000,32300,0.3079,0.6921
Gardner-Webb University,Boiling Springs,NC,www.gardner-webb.edu,2,5,32,35.24732,-81.668141,17,13,0.6712,503,510,485,22,21,22,NULL,1020,37620,27080,27080,0.7373,39500,32100,36200,36100,39100,0.3359,0.6641
Greensboro College,Greensboro,NC,www.greensboro.edu,2,5,11,36.071082,-79.800232,22,7,0.7311,435,445,410,18,17,18,7,876,38810,26850,26850,0.515,38000,29900,33300,34700,34200,0.5277,0.4723
Guilford College,Greensboro,NC,www.guilford.edu,2,5,11,36.092563,-79.888848,21,11,0.6218,NULL,NULL,NULL,NULL,NULL,NULL,NULL,NULL,45395,33430,33430,0.7398,42100,30000,34900,33700,41600,0.472,0.528
High Point University,High Point,NC,www.highpoint.edu,2,5,12,35.972674,-79.994545,22,14,0.8019,545,556,540,24,23,23,NULL,1096,45350,31480,31480,0.772,41600,33900,35800,37600,41300,0.4058,0.5942
Laurel University,High Point,NC,www.laureluniversity.edu,2,5,12,35.994093,-79.997065,24,7,0.8308,NULL,NULL,NULL,NULL,NULL,NULL,NULL,NULL,17410,9850,9850,0.8571,36100,PrivacySuppressed,33300,37700,37200,0.6622,0.3378
Johnson C Smith University,Charlotte,NC,www.jcsu.edu,2,5,11,35.243384,-80.854842,21,11,0.4225,405,405,NULL,17,16,17,NULL,808,31993,18236,18236,0.6638,32600,22800,24400,26500,32000,0.3949,0.6051
Lees-McRae College,Banner Elk,NC,www.lmc.edu,2,5,42,36.162777,-81.873919,22,8,0.6196,NULL,NULL,NULL,NULL,NULL,NULL,NULL,NULL,38540,24150,24150,0.6593,34700,26500,29100,29200,35000,0.3383,0.6617
Lenoir-Rhyne University,Hickory,NC,www.lr.edu,2,5,13,35.73904,-81.326161,20,11,0.658,NULL,NULL,NULL,NULL,NULL,NULL,NULL,NULL,41612,30922,30922,0.7613,40900,31400,35600,36200,39700,0.4423,0.5577
Livingstone College,Salisbury,NC,www.livingstone.edu,2,5,22,35.670743,-80.484459,22,11,0.6425,363,360,345,15,13,15,NULL,720,25920,16825,16825,0.5519,26200,19900,22100,23700,26900,0.5296,0.4704
Mars Hill University,Mars Hill,NC,www.mhu.edu,2,5,21,35.825858,-82.550859,22,11,0.6209,455,465,NULL,20,19,20,NULL,924,38086,27590,27590,0.5564,33000,25900,27600,29100,34400,0.505,0.495
Meredith College,Raleigh,NC,www.meredith.edu,2,5,11,35.797197,-78.689175,21,11,0.6127,NULL,NULL,NULL,NULL,NULL,NULL,NULL,NULL,40570,32140,32140,0.7928,39600,30500,33800,37500,40000,0,1
Methodist University,Fayetteville,NC,www.methodist.edu,2,5,12,35.137854,-78.875024,20,10,0.5594,470,475,445,21,19,21,7,962,46685,29080,29080,0.6314,43900,34100,37500,38200,43400,0.5463,0.4537
Montreat College,Montreat,NC,www.montreat.edu,2,5,21,35.645844,-82.297522,20,7,0.4606,570,465,NULL,21,NULL,NULL,NULL,1016,35580,23520,23520,0.5825,42500,37100,37300,37800,45300,0.4544,0.5456
University of Mount Olive,Mount Olive,NC,www.umo.edu,2,5,31,35.206314,-78.071265,22,9,0.4685,448,465,NULL,19,18,20,NULL,902,26982,17800,17800,0.695,43200,36500,38300,39900,42500,0.3309,0.6691
North Carolina A & T State University,Greensboro,NC,www.ncat.edu,1,5,11,36.076737,-79.770152,16,13,0.57,450,460,430,19,18,20,NULL,910,18198,5642,18402,0.7913,38200,28600,32100,33400,37200,0.4505,0.5495
University of North Carolina at Asheville,Asheville,NC,www.unca.edu,1,5,13,35.616618,-82.565259,21,13,0.7314,610,585,575,26,26,25,NULL,1191,18574,6392,21263,0.771,38600,27700,30200,32200,38200,0.4444,0.5556
University of North Carolina at Chapel Hill,Chapel Hill,NC,www.unc.edu,1,5,13,35.912165,-79.050969,15,17,0.285,650,670,645,30,31,30,9,1328,23978,8336,33418,0.9706,61600,49200,54900,58200,58900,0.4219,0.5781
University of North Carolina at Charlotte,Charlotte,NC,www.uncc.edu,1,5,11,35.306834,-80.73579,16,15,0.6409,530,555,520,23,22,24,7,1079,18044,6277,19448,0.8243,47300,36400,39200,42300,44800,0.521,0.479
University of North Carolina at Greensboro,Greensboro,NC,www.uncg.edu,1,5,11,36.067503,-79.809844,16,16,0.6073,515,515,485,23,23,22,7,1043,18640,6454,21316,0.7839,39900,30600,33500,35200,38700,0.3403,0.6597
North Carolina Central University,Durham,NC,www.nccu.edu,1,5,12,35.974237,-78.898602,18,13,0.4322,440,445,420,19,18,19,NULL,886,18354,5526,16941,0.7657,35100,26400,31000,30700,34100,0.3344,0.6656
University of North Carolina School of the Arts,Winston-Salem,NC,www.uncsa.edu/,1,5,12,36.07482,-80.236625,30,8,0.432,570,550,555,24,25,22,NULL,1116,21554,8363,23733,0.8905,37200,27800,31600,34400,36900,0.52,0.48
North Carolina State University at Raleigh,Raleigh,NC,www.ncsu.edu,1,5,11,35.785111,-78.674517,15,16,0.516,605,640,585,28,28,28,8,1253,22046,8296,23551,0.9298,55200,40500,46400,49200,52300,0.5616,0.4384
North Carolina Wesleyan College,Rocky Mount,NC,www.ncwc.edu,2,5,13,36.017443,-77.774231,22,10,0.5326,468,482,NULL,18,NULL,NULL,NULL,923,37812,27400,27400,0.555,42500,32300,37800,36700,38200,0.4179,0.5821
University of North Carolina Wilmington,Wilmington,NC,www.uncw.edu,1,5,12,34.225223,-77.875527,18,16,0.5855,590,600,570,24,25,24,8,1145,20292,6392,20420,0.8444,44300,33200,36700,38700,41600,0.3863,0.6137
William Peace University,Raleigh,NC,www.peace.edu,2,5,11,35.789105,-78.636793,21,8,0.6291,445,445,NULL,19,18,18,NULL,890,38415,24650,24650,0.5981,36800,27200,30500,31500,39300,0.3482,0.6518
University of North Carolina at Pembroke,Pembroke,NC,www.uncp.edu,1,5,32,34.687231,-79.201895,18,13,0.7326,460,470,430,20,19,20,NULL,930,17014,5287,15239,0.6805,35300,27600,29900,31000,34400,0.3988,0.6012
Pfeiffer University,Misenheimer,NC,www.pfeiffer.edu,2,5,42,35.484696,-80.283168,18,11,0.4723,475,510,450,19,18,20,NULL,948,35538,25855,25855,0.6623,40800,33300,35200,39100,40600,0.4164,0.5836
Piedmont International University,Winston-Salem,NC,www.piedmontu.edu,2,5,12,36.088839,-80.249121,24,7,0.4607,500,460,420,20,18,19,NULL,937,21468,9580,9580,0.5517,33200,26900,28500,33200,28100,0.6316,0.3684
Queens University of Charlotte,Charlotte,NC,www.queens.edu,2,5,11,35.188929,-80.832227,19,11,0.7845,525,515,NULL,23,23,22,NULL,1051,43239,30910,30910,0.727,42800,39900,38600,42700,45300,0.2949,0.7051
Mid-Atlantic Christian University,Elizabeth City,NC,www.macuniversity.edu,2,5,32,36.303765,-76.217496,24,7,0.3789,470,455,460,23,20,21,7,983,25268,12800,12800,0.5758,30300,23800,27900,29100,32800,0.3949,0.6051
Saint Augustine's University,Raleigh,NC,www.st-aug.edu,2,5,11,35.785032,-78.621806,22,11,0.7403,360,368,NULL,16,15,15,NULL,740,31636,17890,17890,0.418,28700,21000,24400,25700,30200,0.5069,0.4931
Salem College,Winston-Salem,NC,www.salem.edu/,2,5,12,36.087531,-80.241357,21,8,0.5985,555,545,NULL,24,25,23,NULL,1102,40574,25356,25356,0.75,34800,29400,30900,31100,35500,0.0444,0.9556
Shaw University,Raleigh,NC,www.shawu.edu,2,5,11,35.771181,-78.637693,22,10,0.5935,NULL,NULL,NULL,NULL,NULL,NULL,NULL,NULL,29344,16480,16480,0.4213,28600,23300,25600,27300,29000,0.4347,0.5653
St Andrews University,Laurinburg,NC,www.sa.edu,2,5,32,34.746283,-79.478385,22,8,0.5713,480,460,NULL,NULL,NULL,NULL,NULL,940,39741,23682,23682,0.6011,37400,29200,23600,31300,34500,0.4559,0.5441
Wake Forest University,Winston-Salem,NC,www.wfu.edu,2,5,12,36.135301,-80.279004,16,14,0.3441,NULL,NULL,NULL,NULL,NULL,NULL,NULL,NULL,60210,46200,46200,0.935,80500,52400,60400,62900,73200,0.4746,0.5254
Warren Wilson College,Swannanoa,NC,www.warren-wilson.edu,2,5,21,35.611762,-82.441097,21,8,0.7177,585,530,545,26,26,23,NULL,1134,43000,30852,30852,0.6591,28300,19300,23300,24600,24400,0.3846,0.6154
Wingate University,Wingate,NC,www.wingate.edu,2,5,21,34.979384,-80.444465,19,11,0.7506,499,510,485,21,NULL,NULL,NULL,1001,36669,26300,26300,0.7243,45600,40100,49400,51000,39800,0.4137,0.5863
Winston-Salem State University,Winston-Salem,NC,www.wssu.edu,1,5,12,36.089197,-80.224905,19,14,0.6016,430,435,410,18,16,18,NULL,859,16559,5583,15113,0.7859,36100,28600,31400,32300,36500,0.2794,0.7206
Western Carolina University,Cullowhee,NC,www.wcu.edu,1,5,32,35.311102,-83.182104,18,13,0.4311,515,525,480,22,22,22,NULL,1035,18549,6305,16698,0.7788,39600,30200,32400,34600,37000,0.459,0.541
Tennessee Temple University,Winston Salem,NC,www.tntemple.edu,2,5,12,35.032456,-85.27742,24,7,0.5817,470,470,460,21,20,20,NULL,962,23054,12460,12460,0.4118,35300,24100,29400,30800,34800,0.4577,0.5423
Johnson & Wales University-Charlotte,Charlotte,NC,www.jwu.edu/,2,5,11,35.23294,-80.8509,23,11,0.6877,NULL,NULL,NULL,NULL,NULL,NULL,NULL,NULL,41579,28539,28539,0.7375,38800,30700,33800,35400,37000,0.3494,0.6506